{"type":"FeatureCollection","features":[{"type":"Feature","geometry":{"type":"Point","coordinates":[-60.66392,-31.60813]},"properties":{"name":null,"country":"Argentina","website":null,"opening_hours":null,"capacity":null,"phone":null,"address":null,"ele":null,"osmType":"node","osmId":1899235755}},{"type":"Feature","geometry":{"type":"Point","coordinates":[-60.66571,-31.61152]},"properties":{"name":null,"country":"Argentina","website":null,"opening_hours":null,"capacity":null,"phone":null,"address":null,"ele":null,"osmType":"node","osmId":1899235802}},{"type":"Feature","geometry":{"type":"Point","coordinates":[-62.43093,-37.0058]},"properties":{"name":null,"country":"Argentina","website":null,"opening_hours":null,"capacity":null,"phone":null,"address":null,"ele":null,"osmType":"node","osmId":2455999147}},{"type":"Feature","geometry":{"type":"Point","coordinates":[-64.71793,-30.76772]},"properties":{"name":"Club San Gerónimo","country":"Argentina","website":null,"opening_hours":null,"capacity":null,"phone":null,"address":null,"ele":null,"osmType":"node","osmId":2459469364}},{"type":"Feature","geometry":{"type":"Point","coordinates":[-60.90681,-34.57624]},"properties":{"name":"Club de Cazadores","country":"Argentina","website":null,"opening_hours":null,"capacity":null,"phone":null,"address":null,"ele":null,"osmType":"node","osmId":2534060196}},{"type":"Feature","geometry":{"type":"Point","coordinates":[-60.90719,-34.57784]},"properties":{"name":"Club de Pescadores","country":"Argentina","website":null,"opening_hours":null,"capacity":null,"phone":null,"address":null,"ele":null,"osmType":"node","osmId":2534060199}},{"type":"Feature","geometry":{"type":"Point","coordinates":[-60.46993,-35.08774]},"properties":{"name":"Club de Pesca San Ramón","country":"Argentina","website":null,"opening_hours":null,"capacity":null,"phone":null,"address":null,"ele":null,"osmType":"node","osmId":2950135199}},{"type":"Feature","geometry":{"type":"Point","coordinates":[-60.81831,-32.63878]},"properties":{"name":null,"country":"Argentina","website":null,"opening_hours":null,"capacity":null,"phone":null,"address":null,"ele":null,"osmType":"node","osmId":3049758307}},{"type":"Feature","geometry":{"type":"Point","coordinates":[-60.81562,-32.63931]},"properties":{"name":null,"country":"Argentina","website":null,"opening_hours":null,"capacity":null,"phone":null,"address":null,"ele":null,"osmType":"node","osmId":3051074448}},{"type":"Feature","geometry":{"type":"Point","coordinates":[-60.53848,-31.7143]},"properties":{"name":"Club de Pescadores","country":"Argentina","website":null,"opening_hours":null,"capacity":null,"phone":null,"address":null,"ele":null,"osmType":"node","osmId":3129900570}},{"type":"Feature","geometry":{"type":"Point","coordinates":[-69.16434,-39.53804]},"properties":{"name":"Club de Pesca","country":"Argentina","website":null,"opening_hours":null,"capacity":null,"phone":null,"address":null,"ele":null,"osmType":"node","osmId":3322358749}},{"type":"Feature","geometry":{"type":"Point","coordinates":[-61.24464,-32.95436]},"properties":{"name":"Club Náutico Casilda","country":"Argentina","website":null,"opening_hours":null,"capacity":null,"phone":null,"address":"Casilda","ele":null,"osmType":"node","osmId":4104911452}},{"type":"Feature","geometry":{"type":"Point","coordinates":[-60.81794,-32.63933]},"properties":{"name":null,"country":"Argentina","website":null,"opening_hours":null,"capacity":null,"phone":null,"address":null,"ele":null,"osmType":"node","osmId":4108768435}},{"type":"Feature","geometry":{"type":"Point","coordinates":[-71.21092,-39.79649]},"properties":{"name":null,"country":"Argentina","website":null,"opening_hours":null,"capacity":null,"phone":null,"address":null,"ele":null,"osmType":"node","osmId":4491159353}},{"type":"Feature","geometry":{"type":"Point","coordinates":[-60.91246,-32.24707]},"properties":{"name":null,"country":"Argentina","website":null,"opening_hours":null,"capacity":null,"phone":null,"address":null,"ele":null,"osmType":"node","osmId":4797443087}},{"type":"Feature","geometry":{"type":"Point","coordinates":[-60.91162,-32.24754]},"properties":{"name":null,"country":"Argentina","website":null,"opening_hours":null,"capacity":null,"phone":null,"address":null,"ele":null,"osmType":"node","osmId":4797443088}},{"type":"Feature","geometry":{"type":"Point","coordinates":[-60.68895,-32.86865]},"properties":{"name":null,"country":"Argentina","website":null,"opening_hours":null,"capacity":null,"phone":null,"address":null,"ele":null,"osmType":"node","osmId":4837054381}},{"type":"Feature","geometry":{"type":"Point","coordinates":[-60.19018,-33.34225]},"properties":{"name":"Bajada de los Pescadores","country":"Argentina","website":null,"opening_hours":null,"capacity":null,"phone":null,"address":null,"ele":null,"osmType":"node","osmId":5910331124}},{"type":"Feature","geometry":{"type":"Point","coordinates":[-60.16729,-33.35699]},"properties":{"name":"Sector de Pesca Club Somisa","country":"Argentina","website":null,"opening_hours":null,"capacity":null,"phone":null,"address":null,"ele":null,"osmType":"node","osmId":5930045387}},{"type":"Feature","geometry":{"type":"Point","coordinates":[-62.79719,-41.02201]},"properties":{"name":"El Pescadero","country":"Argentina","website":null,"opening_hours":null,"capacity":null,"phone":null,"address":null,"ele":null,"osmType":"node","osmId":6186701236}},{"type":"Feature","geometry":{"type":"Point","coordinates":[-60.87315,-32.3333]},"properties":{"name":null,"country":"Argentina","website":null,"opening_hours":null,"capacity":null,"phone":null,"address":null,"ele":null,"osmType":"node","osmId":6331968905}},{"type":"Feature","geometry":{"type":"Point","coordinates":[-60.87181,-32.33209]},"properties":{"name":null,"country":"Argentina","website":null,"opening_hours":null,"capacity":null,"phone":null,"address":null,"ele":null,"osmType":"node","osmId":6331968906}},{"type":"Feature","geometry":{"type":"Point","coordinates":[-60.87663,-32.33674]},"properties":{"name":null,"country":"Argentina","website":null,"opening_hours":null,"capacity":null,"phone":null,"address":null,"ele":null,"osmType":"node","osmId":6331968908}},{"type":"Feature","geometry":{"type":"Point","coordinates":[-60.06299,-33.34844]},"properties":{"name":"1er surubí","country":"Argentina","website":null,"opening_hours":null,"capacity":null,"phone":null,"address":null,"ele":null,"osmType":"node","osmId":6397588188}},{"type":"Feature","geometry":{"type":"Point","coordinates":[-60.08955,-33.35466]},"properties":{"name":"2do Surubi","country":"Argentina","website":null,"opening_hours":null,"capacity":null,"phone":null,"address":null,"ele":null,"osmType":"node","osmId":6407646786}},{"type":"Feature","geometry":{"type":"Point","coordinates":[-60.80506,-32.44067]},"properties":{"name":null,"country":"Argentina","website":null,"opening_hours":null,"capacity":null,"phone":null,"address":null,"ele":null,"osmType":"node","osmId":6417173310}},{"type":"Feature","geometry":{"type":"Point","coordinates":[-60.80495,-32.44218]},"properties":{"name":null,"country":"Argentina","website":null,"opening_hours":null,"capacity":null,"phone":null,"address":null,"ele":null,"osmType":"node","osmId":6417173311}},{"type":"Feature","geometry":{"type":"Point","coordinates":[-60.80475,-32.44159]},"properties":{"name":null,"country":"Argentina","website":null,"opening_hours":null,"capacity":null,"phone":null,"address":null,"ele":null,"osmType":"node","osmId":6417173312}},{"type":"Feature","geometry":{"type":"Point","coordinates":[-60.8063,-32.44323]},"properties":{"name":null,"country":"Argentina","website":null,"opening_hours":null,"capacity":null,"phone":null,"address":null,"ele":null,"osmType":"node","osmId":6417173313}},{"type":"Feature","geometry":{"type":"Point","coordinates":[-60.80746,-32.44403]},"properties":{"name":null,"country":"Argentina","website":null,"opening_hours":null,"capacity":null,"phone":null,"address":null,"ele":null,"osmType":"node","osmId":6417173314}},{"type":"Feature","geometry":{"type":"Point","coordinates":[-60.80859,-32.4449]},"properties":{"name":null,"country":"Argentina","website":null,"opening_hours":null,"capacity":null,"phone":null,"address":null,"ele":null,"osmType":"node","osmId":6417173315}},{"type":"Feature","geometry":{"type":"Point","coordinates":[-60.81139,-32.44678]},"properties":{"name":"Camping Sindicato de Estaciones, Garages, Playas y Lavaderos","country":"Argentina","website":null,"opening_hours":null,"capacity":null,"phone":null,"address":null,"ele":null,"osmType":"node","osmId":6417173316}},{"type":"Feature","geometry":{"type":"Point","coordinates":[-60.02351,-33.28068]},"properties":{"name":"Zona de dorados","country":"Argentina","website":null,"opening_hours":null,"capacity":null,"phone":null,"address":null,"ele":null,"osmType":"node","osmId":6417767686}},{"type":"Feature","geometry":{"type":"Point","coordinates":[-60.02113,-33.30051]},"properties":{"name":"Ranchada copada","country":"Argentina","website":null,"opening_hours":null,"capacity":null,"phone":null,"address":null,"ele":null,"osmType":"node","osmId":6417767989}},{"type":"Feature","geometry":{"type":"Point","coordinates":[-60.05014,-33.33751]},"properties":{"name":"La Horqueta","country":"Argentina","website":null,"opening_hours":null,"capacity":null,"phone":null,"address":null,"ele":null,"osmType":"node","osmId":6417776186}},{"type":"Feature","geometry":{"type":"Point","coordinates":[-60.0195,-33.28457]},"properties":{"name":"Surubies","country":"Argentina","website":null,"opening_hours":null,"capacity":null,"phone":null,"address":null,"ele":null,"osmType":"node","osmId":6417776187}},{"type":"Feature","geometry":{"type":"Point","coordinates":[-60.05533,-33.34792]},"properties":{"name":"Palo seco","country":"Argentina","website":null,"opening_hours":null,"capacity":null,"phone":null,"address":null,"ele":null,"osmType":"node","osmId":6437535786}},{"type":"Feature","geometry":{"type":"Point","coordinates":[-60.01964,-33.35105]},"properties":{"name":"Árbol pescado por Luis","country":"Argentina","website":null,"opening_hours":null,"capacity":null,"phone":null,"address":null,"ele":null,"osmType":"node","osmId":6437552587}},{"type":"Feature","geometry":{"type":"Point","coordinates":[-60.00601,-33.3087]},"properties":{"name":"Dorado con pata de motor","country":"Argentina","website":null,"opening_hours":null,"capacity":null,"phone":null,"address":null,"ele":null,"osmType":"node","osmId":6437552590}},{"type":"Feature","geometry":{"type":"Point","coordinates":[-60.01209,-33.32735]},"properties":{"name":"Familia pescando","country":"Argentina","website":null,"opening_hours":null,"capacity":null,"phone":null,"address":null,"ele":null,"osmType":"node","osmId":6437552591}},{"type":"Feature","geometry":{"type":"Point","coordinates":[-60.01128,-33.2856]},"properties":{"name":"Asado del 1 de mayo 2019","country":"Argentina","website":null,"opening_hours":null,"capacity":null,"phone":null,"address":null,"ele":null,"osmType":"node","osmId":6449465387}},{"type":"Feature","geometry":{"type":"Point","coordinates":[-60.01092,-33.35044]},"properties":{"name":"Dorados con señuelo","country":"Argentina","website":null,"opening_hours":null,"capacity":null,"phone":null,"address":null,"ele":null,"osmType":"node","osmId":6511064786}},{"type":"Feature","geometry":{"type":"Point","coordinates":[-60.05132,-33.35173]},"properties":{"name":null,"country":"Argentina","website":null,"opening_hours":null,"capacity":null,"phone":null,"address":null,"ele":null,"osmType":"node","osmId":6561401685}},{"type":"Feature","geometry":{"type":"Point","coordinates":[-60.2838,-33.25299]},"properties":{"name":null,"country":"Argentina","website":null,"opening_hours":null,"capacity":null,"phone":null,"address":null,"ele":null,"osmType":"node","osmId":6590124685}},{"type":"Feature","geometry":{"type":"Point","coordinates":[-60.23644,-33.2577]},"properties":{"name":"Entrada al arroyo el Talar","country":"Argentina","website":null,"opening_hours":null,"capacity":null,"phone":null,"address":null,"ele":null,"osmType":"node","osmId":6594845498}},{"type":"Feature","geometry":{"type":"Point","coordinates":[-60.23253,-33.25827]},"properties":{"name":"Mezcla de aguas","country":"Argentina","website":null,"opening_hours":null,"capacity":null,"phone":null,"address":null,"ele":null,"osmType":"node","osmId":6594845705}},{"type":"Feature","geometry":{"type":"Point","coordinates":[-64.87526,-40.7949]},"properties":{"name":"Pescadero Mirador Norte","country":"Argentina","website":null,"opening_hours":null,"capacity":null,"phone":null,"address":null,"ele":null,"osmType":"node","osmId":7140536066}},{"type":"Feature","geometry":{"type":"Point","coordinates":[-64.85803,-40.7901]},"properties":{"name":"Pescadero Punta Perdices","country":"Argentina","website":null,"opening_hours":null,"capacity":null,"phone":null,"address":null,"ele":null,"osmType":"node","osmId":7140536068}},{"type":"Feature","geometry":{"type":"Point","coordinates":[-64.88719,-40.79978]},"properties":{"name":"Pescadero Mirador Sur","country":"Argentina","website":null,"opening_hours":null,"capacity":null,"phone":null,"address":null,"ele":null,"osmType":"node","osmId":7140584314}},{"type":"Feature","geometry":{"type":"Point","coordinates":[-64.90417,-40.80477]},"properties":{"name":"Pescadero Punta Villarino","country":"Argentina","website":null,"opening_hours":null,"capacity":null,"phone":null,"address":null,"ele":null,"osmType":"node","osmId":7140584317}},{"type":"Feature","geometry":{"type":"Point","coordinates":[-64.80288,-40.8208]},"properties":{"name":"Pescadero Las Conchillas","country":"Argentina","website":null,"opening_hours":null,"capacity":null,"phone":null,"address":null,"ele":null,"osmType":"node","osmId":7140584324}},{"type":"Feature","geometry":{"type":"Point","coordinates":[-71.04474,-39.11352]},"properties":{"name":null,"country":"Argentina","website":null,"opening_hours":null,"capacity":null,"phone":null,"address":null,"ele":null,"osmType":"node","osmId":7242582049}},{"type":"Feature","geometry":{"type":"Point","coordinates":[-60.60597,-38.62722]},"properties":{"name":null,"country":"Argentina","website":null,"opening_hours":null,"capacity":null,"phone":null,"address":null,"ele":null,"osmType":"node","osmId":7272474968}},{"type":"Feature","geometry":{"type":"Point","coordinates":[-61.55403,-36.71161]},"properties":{"name":"Club de Pesca La Glorieta","country":"Argentina","website":null,"opening_hours":null,"capacity":null,"phone":null,"address":null,"ele":null,"osmType":"node","osmId":8174060408}},{"type":"Feature","geometry":{"type":"Point","coordinates":[-62.22595,-38.67884]},"properties":{"name":"Arroyo Napostá","country":"Argentina","website":null,"opening_hours":null,"capacity":null,"phone":null,"address":null,"ele":null,"osmType":"node","osmId":8416551251}},{"type":"Feature","geometry":{"type":"Point","coordinates":[-60.90922,-34.5781]},"properties":{"name":"Club de pescadores Junin","country":"Argentina","website":null,"opening_hours":null,"capacity":null,"phone":null,"address":null,"ele":null,"osmType":"node","osmId":8476791904}},{"type":"Feature","geometry":{"type":"Point","coordinates":[-62.4704,-38.03846]},"properties":{"name":"Casa Club Pesca","country":"Argentina","website":null,"opening_hours":null,"capacity":null,"phone":null,"address":null,"ele":null,"osmType":"node","osmId":9405029652}},{"type":"Feature","geometry":{"type":"Point","coordinates":[-71.26657,-40.38267]},"properties":{"name":null,"country":"Argentina","website":null,"opening_hours":null,"capacity":null,"phone":null,"address":null,"ele":null,"osmType":"node","osmId":9464983526}},{"type":"Feature","geometry":{"type":"Point","coordinates":[-71.15205,-41.05567]},"properties":{"name":"Pesca con mosca - Devolución obligatoria","country":"Argentina","website":null,"opening_hours":null,"capacity":null,"phone":null,"address":null,"ele":null,"osmType":"node","osmId":9478439022}},{"type":"Feature","geometry":{"type":"Point","coordinates":[-71.26567,-40.38357]},"properties":{"name":null,"country":"Argentina","website":null,"opening_hours":null,"capacity":null,"phone":null,"address":null,"ele":null,"osmType":"node","osmId":9486294678}},{"type":"Feature","geometry":{"type":"Point","coordinates":[-62.94916,-40.82244]},"properties":{"name":null,"country":"Argentina","website":null,"opening_hours":null,"capacity":null,"phone":null,"address":null,"ele":null,"osmType":"node","osmId":9634090597}},{"type":"Feature","geometry":{"type":"Point","coordinates":[-68.62495,-41.50157]},"properties":{"name":"Ñe Luan","country":"Argentina","website":null,"opening_hours":null,"capacity":null,"phone":null,"address":null,"ele":null,"osmType":"node","osmId":10285071070}},{"type":"Feature","geometry":{"type":"Point","coordinates":[-64.25734,-42.61931]},"properties":{"name":"El Pescadero","country":"Argentina","website":null,"opening_hours":null,"capacity":null,"phone":null,"address":null,"ele":null,"osmType":"node","osmId":10300681535}},{"type":"Feature","geometry":{"type":"Point","coordinates":[-71.14147,-41.05629]},"properties":{"name":null,"country":"Argentina","website":null,"opening_hours":null,"capacity":null,"phone":null,"address":null,"ele":null,"osmType":"node","osmId":10580486938}},{"type":"Feature","geometry":{"type":"Point","coordinates":[-61.17013,-32.85197]},"properties":{"name":"Club de Pescadores","country":"Argentina","website":null,"opening_hours":null,"capacity":null,"phone":null,"address":null,"ele":null,"osmType":"node","osmId":10693834182}},{"type":"Feature","geometry":{"type":"Point","coordinates":[-64.71664,-30.76833]},"properties":{"name":"Club Nautico \"Cruz del Eje\"","country":"Argentina","website":null,"opening_hours":null,"capacity":null,"phone":null,"address":null,"ele":null,"osmType":"node","osmId":10722845123}},{"type":"Feature","geometry":{"type":"Point","coordinates":[-60.80941,-32.44554]},"properties":{"name":"Camping Municipal Los Dos Ríos","country":"Argentina","website":null,"opening_hours":null,"capacity":null,"phone":null,"address":null,"ele":null,"osmType":"node","osmId":10794154059}},{"type":"Feature","geometry":{"type":"Point","coordinates":[-60.18585,-33.12319]},"properties":{"name":null,"country":"Argentina","website":null,"opening_hours":null,"capacity":null,"phone":null,"address":null,"ele":null,"osmType":"node","osmId":10858985705}},{"type":"Feature","geometry":{"type":"Point","coordinates":[-65.9969,-39.25126]},"properties":{"name":null,"country":"Argentina","website":null,"opening_hours":null,"capacity":null,"phone":null,"address":null,"ele":null,"osmType":"node","osmId":11307591316}},{"type":"Feature","geometry":{"type":"Point","coordinates":[-71.62308,-43.13316]},"properties":{"name":"Pesca deportiva","country":"Argentina","website":null,"opening_hours":null,"capacity":null,"phone":null,"address":null,"ele":null,"osmType":"node","osmId":11580139773}},{"type":"Feature","geometry":{"type":"Point","coordinates":[-71.65904,-43.12304]},"properties":{"name":"Bahía Mansa","country":"Argentina","website":null,"opening_hours":null,"capacity":null,"phone":null,"address":null,"ele":null,"osmType":"node","osmId":11580139793}},{"type":"Feature","geometry":{"type":"Point","coordinates":[-63.11798,-37.55317]},"properties":{"name":"Laguna La Salada","country":"Argentina","website":null,"opening_hours":null,"capacity":null,"phone":null,"address":null,"ele":null,"osmType":"node","osmId":11748708662}},{"type":"Feature","geometry":{"type":"Point","coordinates":[-62.40437,-36.99614]},"properties":{"name":null,"country":"Argentina","website":null,"opening_hours":null,"capacity":null,"phone":null,"address":null,"ele":null,"osmType":"node","osmId":11764141358}},{"type":"Feature","geometry":{"type":"Point","coordinates":[-64.71605,-30.77103]},"properties":{"name":"Club de Pesca y Camping San Geronimo","country":"Argentina","website":null,"opening_hours":null,"capacity":null,"phone":null,"address":null,"ele":null,"osmType":"node","osmId":11905888179}},{"type":"Feature","geometry":{"type":"Point","coordinates":[-64.71527,-30.77367]},"properties":{"name":"Club de Pesca Huerta Grande","country":"Argentina","website":null,"opening_hours":null,"capacity":null,"phone":null,"address":null,"ele":null,"osmType":"node","osmId":11905888180}},{"type":"Feature","geometry":{"type":"Point","coordinates":[-71.37149,-41.17253]},"properties":{"name":"Mato Fly Fishing Patagonia, Fishing Guide Bariloche. Book the Trip here!!+5492944300193","country":"Argentina","website":"https://www.instagram.com/mato_fly_fishing_bariloche/","opening_hours":null,"capacity":null,"phone":null,"address":null,"ele":null,"osmType":"node","osmId":12105229632}},{"type":"Feature","geometry":{"type":"Point","coordinates":[-67.36154,-45.65741]},"properties":{"name":null,"country":"Argentina","website":null,"opening_hours":null,"capacity":null,"phone":null,"address":null,"ele":null,"osmType":"node","osmId":12140881214}},{"type":"Feature","geometry":{"type":"Point","coordinates":[-67.36071,-45.65229]},"properties":{"name":null,"country":"Argentina","website":null,"opening_hours":null,"capacity":null,"phone":null,"address":null,"ele":null,"osmType":"node","osmId":12140881215}},{"type":"Feature","geometry":{"type":"Point","coordinates":[-67.35359,-45.63334]},"properties":{"name":"El Pique","country":"Argentina","website":null,"opening_hours":null,"capacity":null,"phone":null,"address":null,"ele":null,"osmType":"node","osmId":12140881216}},{"type":"Feature","geometry":{"type":"Point","coordinates":[-67.3561,-45.63704]},"properties":{"name":null,"country":"Argentina","website":null,"opening_hours":null,"capacity":null,"phone":null,"address":null,"ele":null,"osmType":"node","osmId":12140881217}},{"type":"Feature","geometry":{"type":"Point","coordinates":[-61.73992,-38.33434]},"properties":{"name":"Sector 22","country":"Argentina","website":null,"opening_hours":null,"capacity":null,"phone":null,"address":null,"ele":null,"osmType":"node","osmId":12175946022}},{"type":"Feature","geometry":{"type":"Point","coordinates":[-61.75679,-38.34755]},"properties":{"name":"Sector 21","country":"Argentina","website":null,"opening_hours":null,"capacity":null,"phone":null,"address":null,"ele":null,"osmType":"node","osmId":12175946023}},{"type":"Feature","geometry":{"type":"Point","coordinates":[-61.72747,-38.34683]},"properties":{"name":"Sector 2","country":"Argentina","website":null,"opening_hours":null,"capacity":null,"phone":null,"address":null,"ele":null,"osmType":"node","osmId":12175946024}},{"type":"Feature","geometry":{"type":"Point","coordinates":[-61.72752,-38.33463]},"properties":{"name":"Sector 1","country":"Argentina","website":null,"opening_hours":null,"capacity":null,"phone":null,"address":null,"ele":null,"osmType":"node","osmId":12175946025}},{"type":"Feature","geometry":{"type":"Point","coordinates":[-61.01228,-32.7182]},"properties":{"name":null,"country":"Argentina","website":null,"opening_hours":null,"capacity":null,"phone":null,"address":null,"ele":null,"osmType":"node","osmId":12292802378}},{"type":"Feature","geometry":{"type":"Point","coordinates":[-61.01242,-32.71583]},"properties":{"name":null,"country":"Argentina","website":null,"opening_hours":null,"capacity":null,"phone":null,"address":null,"ele":null,"osmType":"node","osmId":12292802379}},{"type":"Feature","geometry":{"type":"Point","coordinates":[-71.67443,-40.73647]},"properties":{"name":"Pesca Río Correntoso","country":"Argentina","website":"https://cazaypesca.neuquen.gob.ar/pesca/","opening_hours":null,"capacity":null,"phone":null,"address":null,"ele":null,"osmType":"node","osmId":12391492384}},{"type":"Feature","geometry":{"type":"Point","coordinates":[-71.66709,-42.22679]},"properties":{"name":null,"country":"Argentina","website":null,"opening_hours":null,"capacity":null,"phone":null,"address":null,"ele":null,"osmType":"node","osmId":12704721300}},{"type":"Feature","geometry":{"type":"Point","coordinates":[-64.30229,-32.18607]},"properties":{"name":null,"country":"Argentina","website":null,"opening_hours":null,"capacity":null,"phone":null,"address":null,"ele":null,"osmType":"node","osmId":12842810728}},{"type":"Feature","geometry":{"type":"Point","coordinates":[-65.66374,-33.03657]},"properties":{"name":null,"country":"Argentina","website":null,"opening_hours":null,"capacity":null,"phone":null,"address":null,"ele":null,"osmType":"node","osmId":12847317122}},{"type":"Feature","geometry":{"type":"Point","coordinates":[-65.01675,-31.87738]},"properties":{"name":"La Agüita Blanca","country":"Argentina","website":null,"opening_hours":null,"capacity":null,"phone":null,"address":null,"ele":null,"osmType":"node","osmId":12861743163}},{"type":"Feature","geometry":{"type":"Point","coordinates":[-60.92365,-32.11746]},"properties":{"name":"Punto La Escuelita","country":"Argentina","website":null,"opening_hours":null,"capacity":null,"phone":null,"address":null,"ele":null,"osmType":"node","osmId":13076813009}},{"type":"Feature","geometry":{"type":"Point","coordinates":[-60.92203,-32.12201]},"properties":{"name":"El Cabrera","country":"Argentina","website":null,"opening_hours":null,"capacity":null,"phone":null,"address":null,"ele":null,"osmType":"node","osmId":13076813010}},{"type":"Feature","geometry":{"type":"Point","coordinates":[-60.93462,-32.16054]},"properties":{"name":"Pozo?","country":"Argentina","website":null,"opening_hours":null,"capacity":null,"phone":null,"address":null,"ele":null,"osmType":"node","osmId":13076813011}},{"type":"Feature","geometry":{"type":"Point","coordinates":[-60.93744,-32.17476]},"properties":{"name":"El Hongo","country":"Argentina","website":null,"opening_hours":null,"capacity":null,"phone":null,"address":null,"ele":null,"osmType":"node","osmId":13076813012}},{"type":"Feature","geometry":{"type":"Point","coordinates":[-60.91324,-32.2017]},"properties":{"name":"Las Tres Bocas","country":"Argentina","website":null,"opening_hours":null,"capacity":null,"phone":null,"address":null,"ele":null,"osmType":"node","osmId":13076813013}},{"type":"Feature","geometry":{"type":"Point","coordinates":[-60.88417,-32.15427]},"properties":{"name":"Los Paticitos","country":"Argentina","website":null,"opening_hours":null,"capacity":null,"phone":null,"address":null,"ele":null,"osmType":"node","osmId":13076813014}},{"type":"Feature","geometry":{"type":"Point","coordinates":[-60.86545,-32.6726]},"properties":{"name":null,"country":"Argentina","website":null,"opening_hours":null,"capacity":null,"phone":null,"address":null,"ele":null,"osmType":"node","osmId":13208820163}},{"type":"Feature","geometry":{"type":"Point","coordinates":[-60.68754,-32.87392]},"properties":{"name":"Muelle Costa Alta","country":"Argentina","website":null,"opening_hours":null,"capacity":null,"phone":null,"address":null,"ele":null,"osmType":"node","osmId":13362275612}},{"type":"Feature","geometry":{"type":"Point","coordinates":[-66.47635,-43.69809]},"properties":{"name":null,"country":"Argentina","website":null,"opening_hours":null,"capacity":null,"phone":null,"address":null,"ele":null,"osmType":"node","osmId":13792447606}},{"type":"Feature","geometry":{"type":"Point","coordinates":[-60.63885,-32.9368]},"properties":{"name":"Club de Pesca Bartolomé Mitre","country":"Argentina","website":"http://www.costarosario.com.ar/Club-Mitre.html","opening_hours":null,"capacity":null,"phone":null,"address":null,"ele":null,"osmType":"way","osmId":186373892}},{"type":"Feature","geometry":{"type":"Point","coordinates":[-60.43428,-33.17529]},"properties":{"name":"Club de Pesca Fighiera","country":"Argentina","website":null,"opening_hours":null,"capacity":null,"phone":null,"address":null,"ele":null,"osmType":"way","osmId":667542393}},{"type":"Feature","geometry":{"type":"Point","coordinates":[-62.79539,-41.02254]},"properties":{"name":"Zona de Pesca con Caña","country":"Argentina","website":null,"opening_hours":null,"capacity":null,"phone":null,"address":null,"ele":null,"osmType":"way","osmId":755705901}},{"type":"Feature","geometry":{"type":"Point","coordinates":[-62.79773,-41.02029]},"properties":{"name":"Zona de Pesca con Redes","country":"Argentina","website":null,"opening_hours":null,"capacity":null,"phone":null,"address":null,"ele":null,"osmType":"way","osmId":755705902}},{"type":"Feature","geometry":{"type":"Point","coordinates":[-60.65194,-32.00244]},"properties":{"name":"Pesca en el Camping Valle María","country":"Argentina","website":null,"opening_hours":null,"capacity":null,"phone":null,"address":null,"ele":null,"osmType":"way","osmId":1151096656}},{"type":"Feature","geometry":{"type":"Point","coordinates":[-60.13204,-31.1908]},"properties":{"name":"Zona de Pesca","country":"Argentina","website":null,"opening_hours":null,"capacity":null,"phone":null,"address":null,"ele":null,"osmType":"way","osmId":1153058375}},{"type":"Feature","geometry":{"type":"Point","coordinates":[-59.30375,-33.1578]},"properties":{"name":null,"country":"Argentina","website":null,"opening_hours":null,"capacity":null,"phone":null,"address":null,"ele":null,"osmType":"node","osmId":3880191027}},{"type":"Feature","geometry":{"type":"Point","coordinates":[-58.43391,-34.54303]},"properties":{"name":null,"country":"Argentina","website":null,"opening_hours":null,"capacity":null,"phone":null,"address":null,"ele":null,"osmType":"node","osmId":5295007976}},{"type":"Feature","geometry":{"type":"Point","coordinates":[-59.97844,-33.25334]},"properties":{"name":"Pesca ATELSTAM S.A.","country":"Argentina","website":null,"opening_hours":"24/7","capacity":null,"phone":null,"address":null,"ele":null,"osmType":"node","osmId":6397574185}},{"type":"Feature","geometry":{"type":"Point","coordinates":[-59.90826,-33.23651]},"properties":{"name":"Próxima pesca","country":"Argentina","website":null,"opening_hours":null,"capacity":null,"phone":null,"address":null,"ele":null,"osmType":"node","osmId":6397599285}},{"type":"Feature","geometry":{"type":"Point","coordinates":[-59.99973,-33.33252]},"properties":{"name":"Pozo y arroyo colmenas grandes","country":"Argentina","website":null,"opening_hours":null,"capacity":null,"phone":null,"address":null,"ele":null,"osmType":"node","osmId":6437552588}},{"type":"Feature","geometry":{"type":"Point","coordinates":[-59.99308,-33.31881]},"properties":{"name":"Cruce peligroso con pozo copado lagunas","country":"Argentina","website":null,"opening_hours":null,"capacity":null,"phone":null,"address":null,"ele":null,"osmType":"node","osmId":6437552589}},{"type":"Feature","geometry":{"type":"Point","coordinates":[-59.91998,-33.21188]},"properties":{"name":"Horqueta Amarillo grande","country":"Argentina","website":null,"opening_hours":null,"capacity":null,"phone":null,"address":null,"ele":null,"osmType":"node","osmId":6501126585}},{"type":"Feature","geometry":{"type":"Point","coordinates":[-59.92492,-33.20104]},"properties":{"name":"Pesca de doraditos, Los Tiestos grandes","country":"Argentina","website":null,"opening_hours":null,"capacity":null,"phone":null,"address":null,"ele":null,"osmType":"node","osmId":6501250685}},{"type":"Feature","geometry":{"type":"Point","coordinates":[-59.91986,-33.21216]},"properties":{"name":"Amarillo grande con morena","country":"Argentina","website":null,"opening_hours":null,"capacity":null,"phone":null,"address":null,"ele":null,"osmType":"node","osmId":6502063785}},{"type":"Feature","geometry":{"type":"Point","coordinates":[-59.91289,-33.22522]},"properties":{"name":"Entrada a los Tiestos","country":"Argentina","website":null,"opening_hours":null,"capacity":null,"phone":null,"address":null,"ele":null,"osmType":"node","osmId":6502063786}},{"type":"Feature","geometry":{"type":"Point","coordinates":[-59.99655,-33.36293]},"properties":{"name":"Pesca Jalil","country":"Argentina","website":null,"opening_hours":null,"capacity":null,"phone":null,"address":null,"ele":null,"osmType":"node","osmId":6515596186}},{"type":"Feature","geometry":{"type":"Point","coordinates":[-59.94657,-33.31475]},"properties":{"name":"Entrada a La Fortuna","country":"Argentina","website":null,"opening_hours":null,"capacity":null,"phone":null,"address":null,"ele":null,"osmType":"node","osmId":6525116486}},{"type":"Feature","geometry":{"type":"Point","coordinates":[-59.97959,-33.2944]},"properties":{"name":"Zanjón","country":"Argentina","website":null,"opening_hours":null,"capacity":null,"phone":null,"address":null,"ele":null,"osmType":"node","osmId":6528673785}},{"type":"Feature","geometry":{"type":"Point","coordinates":[-59.99983,-33.27752]},"properties":{"name":"La casa del Dorado","country":"Argentina","website":null,"opening_hours":null,"capacity":null,"phone":null,"address":null,"ele":null,"osmType":"node","osmId":6693634285}},{"type":"Feature","geometry":{"type":"Point","coordinates":[-59.7686,-33.23908]},"properties":{"name":"Pesca con Romagnioli","country":"Argentina","website":null,"opening_hours":null,"capacity":null,"phone":null,"address":null,"ele":null,"osmType":"node","osmId":6749987886}},{"type":"Feature","geometry":{"type":"Point","coordinates":[-59.99005,-33.01917]},"properties":{"name":"Barco de piedra","country":"Argentina","website":null,"opening_hours":null,"capacity":null,"phone":null,"address":null,"ele":null,"osmType":"node","osmId":6754482785}},{"type":"Feature","geometry":{"type":"Point","coordinates":[-57.9317,-35.77094]},"properties":{"name":"Pesquero La Amistad","country":"Argentina","website":null,"opening_hours":null,"capacity":null,"phone":null,"address":null,"ele":null,"osmType":"node","osmId":6894441277}},{"type":"Feature","geometry":{"type":"Point","coordinates":[-59.9334,-33.12103]},"properties":{"name":"Arboleda de pesca","country":"Argentina","website":null,"opening_hours":null,"capacity":null,"phone":null,"address":null,"ele":null,"osmType":"node","osmId":7146735885}},{"type":"Feature","geometry":{"type":"Point","coordinates":[-59.00164,-35.59434]},"properties":{"name":"Pesquero El Paraíso","country":"Argentina","website":null,"opening_hours":null,"capacity":null,"phone":null,"address":null,"ele":null,"osmType":"node","osmId":7857777835}},{"type":"Feature","geometry":{"type":"Point","coordinates":[-59.87602,-37.63487]},"properties":{"name":null,"country":"Argentina","website":null,"opening_hours":null,"capacity":null,"phone":null,"address":null,"ele":null,"osmType":"node","osmId":9389453263}},{"type":"Feature","geometry":{"type":"Point","coordinates":[-58.15841,-32.19202]},"properties":{"name":null,"country":"Argentina","website":null,"opening_hours":null,"capacity":null,"phone":null,"address":null,"ele":null,"osmType":"node","osmId":10575156005}},{"type":"Feature","geometry":{"type":"Point","coordinates":[-58.16259,-32.18638]},"properties":{"name":null,"country":"Argentina","website":null,"opening_hours":null,"capacity":null,"phone":null,"address":null,"ele":null,"osmType":"node","osmId":10575156006}},{"type":"Feature","geometry":{"type":"Point","coordinates":[-58.73197,-34.24663]},"properties":{"name":null,"country":"Argentina","website":null,"opening_hours":null,"capacity":null,"phone":null,"address":null,"ele":null,"osmType":"node","osmId":10736062753}},{"type":"Feature","geometry":{"type":"Point","coordinates":[-58.73242,-34.2466]},"properties":{"name":null,"country":"Argentina","website":null,"opening_hours":null,"capacity":null,"phone":null,"address":null,"ele":null,"osmType":"node","osmId":10736062756}},{"type":"Feature","geometry":{"type":"Point","coordinates":[-58.41163,-33.08445]},"properties":{"name":null,"country":"Argentina","website":null,"opening_hours":null,"capacity":null,"phone":null,"address":null,"ele":null,"osmType":"node","osmId":11395181485}},{"type":"Feature","geometry":{"type":"Point","coordinates":[-58.40138,-34.5622]},"properties":{"name":null,"country":"Argentina","website":null,"opening_hours":null,"capacity":null,"phone":null,"address":null,"ele":null,"osmType":"way","osmId":26330673}},{"type":"Feature","geometry":{"type":"Point","coordinates":[-58.45491,-34.52829]},"properties":{"name":null,"country":"Argentina","website":null,"opening_hours":null,"capacity":null,"phone":null,"address":null,"ele":null,"osmType":"way","osmId":474972797}},{"type":"Feature","geometry":{"type":"Point","coordinates":[-57.98297,-31.26032]},"properties":{"name":null,"country":"Argentina","website":null,"opening_hours":null,"capacity":null,"phone":null,"address":null,"ele":null,"osmType":"way","osmId":674576361}},{"type":"Feature","geometry":{"type":"Point","coordinates":[-58.22009,-34.70857]},"properties":{"name":null,"country":"Argentina","website":null,"opening_hours":null,"capacity":null,"phone":null,"address":null,"ele":null,"osmType":"way","osmId":1418539004}}]}